Passes.txt

Satellite                     AOS           LOS     Duration  Peak AZ  Peak EL
------------------------------------------------------------------------------
IO-117      10/31/2024 9:39:36 AM   10:59:45 AM     01:20:09   295.2°    65.9°
CAS-4A     10/31/2024 11:43:08 AM   11:54:40 AM     00:11:32   139.7°    30.9°
RS-44      10/31/2024 12:16:01 PM   12:35:58 PM     00:19:57   271.2°    33.5°
CAS-4A      10/31/2024 1:21:17 PM    1:32:58 PM     00:11:41   333.5°    33.0°
AO-73       10/31/2024 3:48:45 PM    4:01:17 PM     00:12:32    78.9°    71.6°
IO-117      10/31/2024 6:13:59 PM    7:34:10 PM     01:20:11    67.4°    71.3°
AO-07       10/31/2024 6:42:26 PM    7:05:27 PM     00:23:01   256.4°    62.8°
XW-2B       10/31/2024 8:41:36 PM    8:50:48 PM     00:09:12   262.5°    72.5°
RS-44      10/31/2024 10:54:23 PM   11:14:29 PM     00:20:06    89.3°    34.6°
ISS         11/1/2024 12:28:58 AM   12:40:07 AM     00:11:09   313.5°    60.5°
RS-44       11/1/2024 12:47:35 AM    1:07:53 AM     00:20:18   281.5°    33.4°
AO-07        11/1/2024 6:50:44 AM    7:13:37 AM     00:22:53   105.2°    65.5°
IO-117       11/1/2024 8:00:39 AM    9:19:05 AM     01:18:26   101.1°    75.8°
ISS          11/1/2024 8:38:43 AM    8:49:49 AM     00:11:06   227.4°    75.0°
XW-2B        11/1/2024 9:18:38 AM    9:27:43 AM     00:09:05   280.7°    62.3°
RS-44       11/1/2024 10:45:59 AM   11:07:17 AM     00:21:18    83.1°    58.6°
CAS-4A      11/1/2024 12:43:48 PM   12:55:37 PM     00:11:49   331.8°    39.6°
AO-73        11/1/2024 3:53:25 PM    4:05:58 PM     00:12:33    80.1°    83.5°
IO-117       11/1/2024 4:31:43 PM    5:50:28 PM     01:18:45    51.6°    40.7°
AO-07        11/1/2024 5:42:49 PM    6:05:28 PM     00:22:39    67.5°    54.8°
CAS-4A       11/1/2024 7:19:43 PM    7:31:25 PM     00:11:42   216.8°    48.4°
IO-117       11/1/2024 8:30:44 PM    9:45:30 PM     01:14:46   265.9°    51.9°
XW-2B        11/1/2024 8:55:01 PM    9:04:01 PM     00:09:00   259.7°    35.5°
RS-44       11/1/2024 11:17:24 PM   11:38:33 PM     00:21:09    92.1°    59.4°
ISS         11/1/2024 11:39:43 PM   11:50:51 PM     00:11:08   132.0°    59.6°
IO-117       11/2/2024 6:27:06 AM    7:38:26 AM     01:11:20    90.3°    40.2°
AO-07        11/2/2024 7:43:37 AM    8:06:12 AM     00:22:35   290.7°    58.3°
ISS          11/2/2024 7:49:27 AM    8:00:28 AM     00:11:01    42.8°    48.4°
IO-117      11/2/2024 10:17:03 AM   11:36:37 AM     01:19:34   302.3°    50.1°
RS-44       11/2/2024 11:09:38 AM   11:31:11 AM     00:21:33   261.5°    84.5°
CAS-4A      11/2/2024 12:06:13 PM   12:18:08 PM     00:11:55   330.3°    48.7°
AO-73        11/2/2024 3:58:02 PM    4:10:35 PM     00:12:33   257.9°    84.1°
AO-07        11/2/2024 6:35:17 PM    6:58:23 PM     00:23:06   254.0°    70.2°
CAS-4A       11/2/2024 6:42:09 PM    6:53:59 PM     00:11:50   215.8°    63.7°
IO-117       11/2/2024 6:50:18 PM    8:09:52 PM     01:19:34   322.7°    89.8°
RS-44       11/2/2024 11:40:57 PM   12:02:21 AM     00:21:24   270.1°    83.2°
AO-07        11/3/2024 5:43:40 AM    6:06:27 AM     00:22:47   103.4°    58.5°
IO-117       11/3/2024 7:35:28 AM    8:55:16 AM     01:19:48   286.7°    84.8°
CAS-4A      11/3/2024 10:28:33 AM   10:40:32 AM     00:11:59   326.0°    61.2°
RS-44       11/3/2024 10:33:30 AM   10:54:35 AM     00:21:05   268.9°    50.5°
AO-73        11/3/2024 3:02:36 PM    3:15:08 PM     00:12:32   259.2°    72.2°
IO-117       11/3/2024 4:09:10 PM    5:29:03 PM     01:19:53    60.8°    54.2°
AO-07        11/3/2024 4:35:53 PM    4:58:17 PM     00:22:24    67.7°    49.1°
CAS-4A       11/3/2024 5:04:29 PM    5:16:23 PM     00:11:54   206.0°    82.7°
AO-07        11/3/2024 6:29:11 PM    6:50:35 PM     00:21:24   260.9°    30.0°
IO-117       11/3/2024 8:07:15 PM    9:17:01 PM     01:09:46   271.0°    36.2°
ISS         11/3/2024 10:37:39 PM   10:48:37 PM     00:10:58   316.6°    35.1°
RS-44       11/3/2024 11:05:00 PM   11:25:56 PM     00:20:56   278.9°    49.3°
IO-117       11/4/2024 5:59:08 AM    7:14:50 AM     01:15:42    96.2°    56.7°
AO-07        11/4/2024 6:36:28 AM    6:59:12 AM     00:22:44   289.5°    65.0°
ISS          11/4/2024 6:47:16 AM    6:58:09 AM     00:10:53   229.7°    40.3°
RS-44        11/4/2024 9:03:58 AM    9:24:51 AM     00:20:53    79.1°    39.7°
CAS-4A       11/4/2024 9:50:48 AM   10:02:49 AM     00:12:01   331.6°    78.1°
IO-117       11/4/2024 9:56:05 AM   11:14:24 AM     01:18:19   311.7°    37.5°
AO-73        11/4/2024 3:07:09 PM    3:19:38 PM     00:12:29   258.2°    61.7°
CAS-4A       11/4/2024 4:26:43 PM    4:38:38 PM     00:11:55    36.3°    77.3°
AO-07        11/4/2024 5:28:09 PM    5:51:18 PM     00:23:09   250.2°    78.0°
IO-117       11/4/2024 6:26:27 PM    7:44:21 PM     01:17:54   258.8°    70.6°
RS-44        11/4/2024 9:35:53 PM    9:56:06 PM     00:20:13    89.3°    39.4°
ISS          11/4/2024 9:48:00 PM    9:59:13 PM     00:11:13   314.7°    76.2°
AO-07        11/5/2024 5:36:38 AM    5:59:14 AM     00:22:36   102.9°    52.0°
ISS          11/5/2024 5:57:41 AM    6:08:48 AM     00:11:07    30.3°    86.3°
IO-117       11/5/2024 8:11:31 AM    9:31:39 AM     01:20:08   294.9°    66.4°
CAS-4A       11/5/2024 9:12:58 AM    9:24:58 AM     00:12:00   152.3°    81.9°
RS-44        11/5/2024 9:27:26 AM    9:49:09 AM     00:21:43    84.7°    67.5°
AO-73        11/5/2024 3:11:39 PM    3:24:05 PM     00:12:26   261.2°    52.7°
CAS-4A       11/5/2024 3:48:51 PM    4:00:44 PM     00:11:53    29.9°    60.2°
AO-07        11/5/2024 4:28:58 PM    4:51:07 PM     00:22:09    65.9°    43.9°
IO-117       11/5/2024 4:45:54 PM    6:06:05 PM     01:20:11    67.1°    70.7°
AO-07        11/5/2024 6:21:50 PM    6:43:38 PM     00:21:48   259.7°    33.9°
ISS          11/5/2024 8:58:33 PM    9:09:37 PM     00:11:04   132.2°    46.5°
RS-44        11/5/2024 9:59:02 PM   10:20:05 PM     00:21:03    93.1°    67.9°
AO-73        11/6/2024 2:58:03 AM    3:10:43 AM     00:12:40    98.4°    31.9°
AO-07        11/6/2024 6:29:20 AM    6:52:11 AM     00:22:51   291.5°    72.4°
IO-117       11/6/2024 6:32:39 AM    7:51:01 AM     01:18:22   100.6°    75.2°
CAS-4A       11/6/2024 8:35:04 AM    8:46:59 AM     00:11:55   145.7°    62.7°
RS-44        11/6/2024 9:51:08 AM   10:12:56 AM     00:21:48   265.4°    74.8°
IO-117       11/6/2024 3:03:35 PM    4:22:17 PM     01:18:42    51.3°    40.3°
CAS-4A       11/6/2024 3:10:52 PM    3:22:42 PM     00:11:50    30.8°    47.5°
AO-73        11/6/2024 3:16:06 PM    3:28:28 PM     00:12:22   260.6°    45.3°
AO-07        11/6/2024 5:21:02 PM    5:44:12 PM     00:23:10   261.7°    86.1°
IO-117       11/6/2024 7:02:39 PM    8:17:33 PM     01:14:54   266.1°    52.5°
RS-44       11/6/2024 10:22:43 PM   10:43:50 PM     00:21:07   276.0°    73.0°
AO-73        11/7/2024 3:02:23 AM    3:15:12 AM     00:12:49    99.7°    36.3°
IO-117       11/7/2024 4:59:12 AM    6:10:21 AM     01:11:09    89.8°    39.7°
AO-07        11/7/2024 5:29:37 AM    5:51:59 AM     00:22:22   102.7°    46.2°
CAS-4A       11/7/2024 7:57:05 AM    8:08:52 AM     00:11:47   142.1°    47.3°
IO-117       11/7/2024 8:48:55 AM   10:08:31 AM     01:19:36   302.0°    50.6°
RS-44       11/7/2024 10:15:05 AM   10:36:11 AM     00:21:06   269.5°    44.4°
AO-73        11/7/2024 3:20:31 PM    3:32:47 PM     00:12:16   261.0°    39.2°
AO-07        11/7/2024 4:22:05 PM    4:43:56 PM     00:21:51    65.2°    39.3°
IO-117       11/7/2024 5:22:14 PM    6:41:50 PM     01:19:36    46.6°    89.4°
AO-07        11/7/2024 6:14:31 PM    6:36:39 PM     00:22:08   258.8°    38.3°
XW-2B        11/7/2024 7:24:27 PM    7:33:03 PM     00:08:36    75.3°    34.4°
ISS          11/7/2024 8:55:46 PM    9:06:51 PM     00:11:05   317.6°    43.9°
RS-44       11/7/2024 10:46:55 PM   11:07:21 PM     00:20:26   279.5°    42.4°
AO-73        11/8/2024 3:06:41 AM    3:19:37 AM     00:12:56   100.1°    41.5°
ISS          11/8/2024 5:05:20 AM    5:16:19 AM     00:10:59   229.4°    52.6°
AO-07        11/8/2024 6:22:13 AM    6:45:09 AM     00:22:56   287.2°    80.3°
IO-117       11/8/2024 7:07:25 AM    8:27:12 AM     01:19:47   286.5°    85.4°
CAS-4A       11/8/2024 7:19:01 AM    7:30:37 AM     00:11:36   141.0°    35.9°
RS-44        11/8/2024 8:45:22 AM    9:06:49 AM     00:21:27    80.1°    46.1°
AO-73        11/8/2024 3:24:54 PM    3:37:03 PM     00:12:09   262.0°    34.2°
IO-117       11/8/2024 3:41:04 PM    5:00:56 PM     01:19:52    60.5°    53.7°
AO-07        11/8/2024 5:13:58 PM    5:37:06 PM     00:23:08    81.4°    85.5°
XW-2B        11/8/2024 7:30:11 PM    7:38:51 PM     00:08:40    75.9°    45.5°
IO-117       11/8/2024 7:39:09 PM    8:49:07 PM     01:09:58   271.2°    36.6°
ISS          11/8/2024 8:05:55 PM    8:17:08 PM     00:11:13   129.6°    82.9°
RS-44        11/8/2024 9:17:24 PM    9:37:42 PM     00:20:18    90.2°    45.0°
AO-73        11/9/2024 3:10:55 AM    3:24:00 AM     00:13:05    99.7°    47.5°
ISS          11/9/2024 4:15:31 AM    4:26:36 AM     00:11:05    45.2°    66.2°
AO-07        11/9/2024 5:22:36 AM    5:44:43 AM     00:22:07   101.1°    41.0°
IO-117       11/9/2024 5:31:10 AM    6:46:46 AM     01:15:36    95.8°    56.1°
AO-07        11/9/2024 7:15:26 AM    7:36:54 AM     00:21:28   295.4°    36.4°
CAS-4A       11/9/2024 8:18:50 AM    8:30:30 AM     00:11:40   332.2°    35.4°
RS-44        11/9/2024 9:08:54 AM    9:30:59 AM     00:22:05    80.8°    77.1°
IO-117       11/9/2024 9:27:54 AM   10:46:15 AM     01:18:21   311.2°    37.9°
CAS-4A       11/9/2024 2:54:24 PM    3:06:06 PM     00:11:42   219.5°    42.3°
AO-07        11/9/2024 4:15:14 PM    4:36:43 PM     00:21:29    64.1°    35.2°
IO-117       11/9/2024 5:58:22 PM    7:16:22 PM     01:18:00   259.2°    71.2°
AO-07        11/9/2024 6:07:14 PM    6:29:38 PM     00:22:24   258.3°    43.1°
ISS          11/9/2024 7:16:17 PM    7:27:11 PM     00:10:54   129.0°    35.6°
XW-2B        11/9/2024 7:34:38 PM    7:43:15 PM     00:08:37    75.7°    57.4°
RS-44        11/9/2024 9:40:41 PM   10:01:38 PM     00:20:57    91.8°    77.5°
AO-73       11/10/2024 3:15:07 AM    3:28:17 AM     00:13:10   100.1°    54.5°
AO-07       11/10/2024 6:15:06 AM    6:38:05 AM     00:22:59   296.7°    88.6°
CAS-4A      11/10/2024 7:40:18 AM    7:52:05 AM     00:11:47   329.8°    43.6°
IO-117      11/10/2024 7:43:26 AM    9:03:34 AM     01:20:08   294.7°    67.0°
XW-2B       11/10/2024 8:06:20 AM    8:14:51 AM     00:08:31   100.2°    47.6°
RS-44       11/10/2024 9:32:40 AM    9:54:38 AM     00:21:58   266.0°    65.9°
CAS-4A      11/10/2024 2:15:53 PM    2:27:44 PM     00:11:51   216.7°    56.5°
IO-117      11/10/2024 4:17:49 PM    5:38:01 PM     01:20:12    66.7°    70.1°
AO-07       11/10/2024 5:06:54 PM    5:29:59 PM     00:23:05    73.2°    77.5°
XW-2B       11/10/2024 7:37:38 PM    7:46:11 PM     00:08:33    75.7°    67.0°
RS-44      11/10/2024 10:04:29 PM   10:25:20 PM     00:20:51   278.5°    63.4°
AO-73       11/11/2024 3:19:17 AM    3:32:31 AM     00:13:14   102.0°    62.4°
AO-07       11/11/2024 5:15:36 AM    5:37:25 AM     00:21:49   101.2°    36.3°
IO-117      11/11/2024 6:04:38 AM    7:22:57 AM     01:18:19   100.3°    74.6°
CAS-4A      11/11/2024 7:01:42 AM    7:13:33 AM     00:11:51   330.1°    55.5°
AO-07       11/11/2024 7:08:14 AM    7:30:02 AM     00:21:48   294.3°    40.7°
RS-44       11/11/2024 8:03:27 AM    8:24:12 AM     00:20:45    78.6°    31.7°
XW-2B       11/11/2024 8:08:33 AM    8:17:01 AM     00:08:28   100.9°    52.5°
RS-44       11/11/2024 9:56:40 AM   10:17:45 AM     00:21:05   270.3°    39.2°
CAS-4A      11/11/2024 1:37:17 PM    1:49:12 PM     00:11:55   210.5°    75.5°
IO-117      11/11/2024 2:35:27 PM    3:54:07 PM     01:18:40    51.0°    39.9°
AO-07       11/11/2024 5:59:59 PM    6:22:38 PM     00:22:39   256.7°    48.5°
IO-117      11/11/2024 6:34:35 PM    7:49:35 PM     01:15:00   264.8°    53.0°
ISS         11/11/2024 7:12:44 PM    7:23:55 PM     00:11:11   317.3°    58.0°
XW-2B       11/11/2024 7:39:06 PM    7:47:34 PM     00:08:28    81.9°    70.9°
RS-44      11/11/2024 10:28:49 PM   10:48:47 PM     00:19:58   281.5°    36.5°
ISS         11/12/2024 3:22:15 AM    3:33:18 AM     00:11:03   225.9°    72.1°
AO-73       11/12/2024 3:23:25 AM    3:36:41 AM     00:13:16   101.6°    71.3°
IO-117      11/12/2024 4:31:18 AM    5:42:15 AM     01:10:57    90.3°    39.3°
AO-07       11/12/2024 6:08:00 AM    6:30:59 AM     00:22:59   104.6°    83.1°
CAS-4A      11/12/2024 6:23:00 AM    6:34:53 AM     00:11:53   327.1°    72.2°
XW-2B       11/12/2024 8:09:10 AM    8:17:33 AM     00:08:23   102.0°    52.4°
IO-117      11/12/2024 8:20:47 AM    9:40:25 AM     01:19:38   301.6°    51.1°
RS-44       11/12/2024 8:26:47 AM    8:48:47 AM     00:22:00    81.2°    53.4°
CAS-4A     11/12/2024 12:58:34 PM    1:10:31 PM     00:11:57    36.9°    82.8°
IO-117      11/12/2024 4:54:09 PM    6:13:47 PM     01:19:38    54.8°    88.8°
AO-07       11/12/2024 4:59:53 PM    5:22:51 PM     00:22:58    68.7°    69.8°
ISS         11/12/2024 6:22:42 PM    6:33:51 PM     00:11:09   132.7°    61.0°
XW-2B       11/12/2024 7:38:55 PM    7:47:17 PM     00:08:22    78.3°    67.3°
RS-44       11/12/2024 8:58:56 PM    9:19:17 PM     00:20:21    90.4°    51.6°
ISS         11/13/2024 2:32:11 AM    2:43:11 AM     00:11:00    42.5°    48.9°
AO-73       11/13/2024 3:27:29 AM    3:40:47 AM     00:13:18    95.6°    80.8°
CAS-4A      11/13/2024 5:44:13 AM    5:56:05 AM     00:11:52   140.4°    86.5°
IO-117      11/13/2024 6:39:23 AM    7:59:07 AM     01:19:44   287.0°    86.0°
AO-07       11/13/2024 7:01:03 AM    7:23:08 AM     00:22:05   294.4°    45.5°
RS-44       11/13/2024 8:50:24 AM    9:12:48 AM     00:22:24    82.7°    87.0°
CAS-4A     11/13/2024 12:19:45 PM   12:31:41 PM     00:11:56    34.6°    63.4°
IO-117      11/13/2024 3:12:58 PM    4:32:48 PM     01:19:50    60.3°    53.2°
AO-07       11/13/2024 5:52:45 PM    6:15:35 PM     00:22:50   257.3°    54.5°
IO-117      11/13/2024 7:11:03 PM    8:21:15 PM     01:10:12   270.5°    37.1°
XW-2B       11/13/2024 7:36:59 PM    7:45:14 PM     00:08:15    78.4°    56.3°
RS-44       11/13/2024 9:22:21 PM    9:43:10 PM     00:20:49   102.3°    87.8°
AO-73       11/14/2024 3:31:31 AM    3:44:50 AM     00:13:19   232.5°    88.8°
IO-117      11/14/2024 5:03:12 AM    6:18:42 AM     01:15:30    95.4°    55.5°
CAS-4A      11/14/2024 5:05:22 AM    5:17:09 AM     00:11:47   143.8°    64.9°
AO-07       11/14/2024 6:00:54 AM    6:23:52 AM     00:22:58   105.3°    74.9°
XW-2B       11/14/2024 8:05:11 AM    8:13:19 AM     00:08:08   100.3°    37.1°
IO-117      11/14/2024 8:59:42 AM   10:18:06 AM     01:18:24   310.8°    38.2°
RS-44       11/14/2024 9:14:13 AM    9:36:19 AM     00:22:06   269.2°    58.1°
CAS-4A     11/14/2024 11:40:50 AM   11:52:41 AM     00:11:51    31.7°    48.9°
AO-07       11/14/2024 4:52:52 PM    5:15:42 PM     00:22:50    69.3°    62.7°
IO-117      11/14/2024 5:30:18 PM    6:48:22 PM     01:18:04   259.4°    71.8°
ISS         11/14/2024 6:19:00 PM    6:29:59 PM     00:10:59   316.5°    36.1°
XW-2B       11/14/2024 7:33:11 PM    7:41:16 PM     00:08:05    75.9°    41.6°
RS-44       11/14/2024 9:46:17 PM   10:06:48 PM     00:20:31   278.7°    54.8°
ISS         11/15/2024 2:28:22 AM    2:39:14 AM     00:10:52   229.6°    41.8°
AO-73       11/15/2024 3:35:30 AM    3:48:49 AM     00:13:19   278.6°    79.5°
CAS-4A      11/15/2024 4:26:26 AM    4:38:05 AM     00:11:39   141.1°    47.5°
AO-07       11/15/2024 6:53:53 AM    7:16:11 AM     00:22:18   292.5°    50.8°
IO-117      11/15/2024 7:15:21 AM    8:35:29 AM     01:20:08   294.4°    67.5°
RS-44       11/15/2024 7:44:49 AM    8:06:17 AM     00:21:28    79.7°    36.8°
RS-44       11/15/2024 9:38:17 AM    9:59:18 AM     00:21:01   270.9°    34.7°
IO-117      11/15/2024 3:49:44 PM    5:09:56 PM     01:20:12    66.4°    69.5°
ISS         11/15/2024 5:28:32 PM    5:39:48 PM     00:11:16   307.0°    80.3°
AO-07       11/15/2024 5:45:34 PM    6:08:32 PM     00:22:58   254.0°    61.2°
RS-44       11/15/2024 8:17:28 PM    8:36:49 PM     00:19:21    88.4°    33.9°
ISS         11/16/2024 1:37:59 AM    1:49:05 AM     00:11:06    38.4°    81.4°
AO-73       11/16/2024 3:39:27 AM    3:52:44 AM     00:13:17   285.1°    70.5°
CAS-4A      11/16/2024 3:47:26 AM    3:58:52 AM     00:11:26   139.7°    35.1°
IO-117      11/16/2024 5:36:38 AM    6:54:52 AM     01:18:14    99.8°    73.9°
AO-07       11/16/2024 5:53:49 AM    6:16:43 AM     00:22:54   105.9°    67.2°
RS-44       11/16/2024 8:08:15 AM    8:30:42 AM     00:22:27    83.6°    61.5°
IO-117      11/16/2024 2:07:19 PM    3:25:56 PM     01:18:37    49.7°    39.5°
ISS         11/16/2024 4:38:20 PM    4:49:22 PM     00:11:02   130.5°    43.1°
AO-07       11/16/2024 4:45:54 PM    5:08:33 PM     00:22:39    68.0°    56.1°
IO-117      11/16/2024 6:06:30 PM    7:21:38 PM     01:15:08   265.0°    53.6°
RS-44       11/16/2024 8:40:29 PM    9:00:53 PM     00:20:24    92.5°    59.4°
AO-73       11/17/2024 3:43:20 AM    3:56:35 AM     00:13:15   284.7°    62.4°
IO-117      11/17/2024 4:03:24 AM    5:14:10 AM     01:10:46    89.8°    38.8°
CAS-4A      11/17/2024 4:46:12 AM    4:57:45 AM     00:11:33   332.7°    35.5°
AO-07       11/17/2024 6:46:43 AM    7:09:15 AM     00:22:32   292.2°    56.8°
IO-117      11/17/2024 7:52:39 AM    9:12:18 AM     01:19:39   301.2°    51.5°
RS-44       11/17/2024 8:31:54 AM    8:54:36 AM     00:22:42   263.9°    83.3°
CAS-4A     11/17/2024 11:21:26 AM   11:33:08 AM     00:11:42   218.6°    43.7°
AO-73       11/17/2024 2:26:19 PM    2:38:24 PM     00:12:05    73.0°    33.6°
IO-117      11/17/2024 4:26:05 PM    5:45:45 PM     01:19:40    59.0°    88.2°
AO-07       11/17/2024 5:38:24 PM    6:01:27 PM     00:23:03   254.6°    68.4°
RS-44       11/17/2024 9:04:02 PM    9:24:42 PM     00:20:40   271.4°    81.5°
AO-73       11/18/2024 3:47:11 AM    4:00:23 AM     00:13:12   283.5°    55.3°
CAS-4A      11/18/2024 4:06:43 AM    4:18:22 AM     00:11:39   331.0°    44.8°
AO-07       11/18/2024 5:46:45 AM    6:09:32 AM     00:22:47   103.9°    60.0°
IO-117      11/18/2024 6:11:21 AM    7:31:02 AM     01:19:41   287.6°    86.6°
RS-44       11/18/2024 8:55:48 AM    9:17:58 AM     00:22:10   268.9°    51.2°
CAS-4A     11/18/2024 10:41:58 AM   10:53:48 AM     00:11:50   218.2°    59.8°
AO-73       11/18/2024 2:30:01 PM    2:42:16 PM     00:12:15    74.7°    37.8°
IO-117      11/18/2024 2:44:52 PM    4:04:41 PM     01:19:49    60.0°    52.7°
ISS         11/18/2024 4:33:51 PM    4:44:59 PM     00:11:08   316.4°    49.5°
AO-07       11/18/2024 4:38:58 PM    5:01:22 PM     00:22:24    68.1°    50.2°
IO-117      11/18/2024 6:42:58 PM    7:53:21 PM     01:10:23   270.6°    37.6°
RS-44       11/18/2024 9:28:04 PM    9:48:17 PM     00:20:13   278.9°    47.2°
ISS        11/19/2024 12:43:10 AM   12:54:11 AM     00:11:01   225.9°    60.9°
CAS-4A      11/19/2024 3:27:09 AM    3:38:52 AM     00:11:43   327.0°    58.6°
AO-73       11/19/2024 3:50:59 AM    4:04:07 AM     00:13:08   285.3°    49.2°
IO-117      11/19/2024 4:35:15 AM    5:50:36 AM     01:15:21    94.9°    55.0°
AO-07       11/19/2024 6:39:34 AM    7:02:16 AM     00:22:42   291.4°    63.5°
RS-44       11/19/2024 7:26:13 AM    7:48:20 AM     00:22:07    79.8°    42.6°
IO-117      11/19/2024 8:31:31 AM    9:49:58 AM     01:18:27   310.3°    38.6°
RS-44       11/19/2024 9:19:56 AM    9:40:49 AM     00:20:53   272.3°    30.7°
CAS-4A     11/19/2024 10:02:24 AM   10:14:18 AM     00:11:54   212.6°    81.3°
AO-73       11/19/2024 2:33:42 PM    2:46:04 PM     00:12:22    75.3°    42.6°
ISS         11/19/2024 3:43:14 PM    3:54:26 PM     00:11:12   128.5°    71.1°
IO-117      11/19/2024 5:02:14 PM    6:20:22 PM     01:18:08   259.6°    72.4°
AO-07       11/19/2024 5:31:16 PM    5:54:22 PM     00:23:06   251.8°    76.2°
RS-44       11/19/2024 7:58:53 PM    8:18:28 PM     00:19:35    88.9°    38.9°
ISS        11/19/2024 11:52:34 PM   12:03:36 AM     00:11:02    45.7°    56.2°
CAS-4A      11/20/2024 2:47:30 AM    2:59:14 AM     00:11:44   321.4°    78.4°
AO-73       11/20/2024 3:54:45 AM    4:07:48 AM     00:13:03   285.8°    43.9°
AO-07       11/20/2024 5:39:42 AM    6:02:20 AM     00:22:38   102.9°    53.4°
IO-117      11/20/2024 6:47:16 AM    8:07:24 AM     01:20:08   294.1°    68.1°
RS-44       11/20/2024 7:49:43 AM    8:12:36 AM     00:22:53    82.6°    70.2°
CAS-4A      11/20/2024 9:22:44 AM    9:34:37 AM     00:11:53    36.6°    75.5°
AO-73       11/20/2024 2:37:21 PM    2:49:48 PM     00:12:27    75.0°    48.1°
ISS         11/20/2024 2:52:52 PM    3:03:38 PM     00:10:46   129.5°    30.2°
IO-117      11/20/2024 3:21:39 PM    4:41:51 PM     01:20:12    66.1°    69.0°
AO-07       11/20/2024 4:32:02 PM    4:54:12 PM     00:22:10    66.5°    45.0°
AO-07       11/20/2024 6:25:00 PM    6:46:41 PM     00:21:41   259.5°    33.0°
XW-2B       11/20/2024 7:50:17 PM    7:57:34 PM     00:07:17   266.8°    75.0°
RS-44       11/20/2024 8:22:02 PM    8:42:29 PM     00:20:27    91.2°    68.4°
CAS-4A      11/21/2024 2:07:46 AM    2:19:27 AM     00:11:41   144.6°    77.4°
AO-73       11/21/2024 3:58:28 AM    4:11:24 AM     00:12:56   286.2°    39.4°
IO-117      11/21/2024 5:08:38 AM    6:26:48 AM     01:18:10    99.4°    73.3°
AO-07       11/21/2024 6:32:25 AM    6:55:15 AM     00:22:50   290.3°    70.7°
RS-44       11/21/2024 8:13:26 AM    8:36:21 AM     00:22:55   268.7°    74.1°
CAS-4A      11/21/2024 8:42:57 AM    8:54:47 AM     00:11:50    30.9°    56.5°
IO-117      11/21/2024 1:39:11 PM    2:57:45 PM     01:18:34    49.4°    39.2°
AO-73       11/21/2024 2:40:57 PM    2:53:29 PM     00:12:32    74.3°    54.4°
ISS         11/21/2024 3:38:32 PM    3:49:27 PM     00:10:55   318.4°    32.9°
AO-07       11/21/2024 5:24:09 PM    5:47:17 PM     00:23:08   245.2°    84.3°
IO-117      11/21/2024 5:38:26 PM    6:53:41 PM     01:15:15   265.1°    54.1°
RS-44       11/21/2024 8:45:42 PM    9:06:15 PM     00:20:33   277.8°    71.2°
CAS-4A      11/22/2024 1:27:57 AM    1:39:32 AM     00:11:35   143.5°    55.6°
IO-117      11/22/2024 3:35:30 AM    4:46:05 AM     01:10:35    89.3°    38.3°
AO-07       11/22/2024 5:32:40 AM    5:55:06 AM     00:22:26   102.5°    47.5°
IO-117      11/22/2024 7:24:31 AM    8:44:12 AM     01:19:41   300.8°    52.0°
AO-07       11/22/2024 7:25:45 AM    7:46:45 AM     00:21:00   296.7°    31.7°
CAS-4A      11/22/2024 8:03:04 AM    8:14:46 AM     00:11:42    30.1°    43.0°
RS-44       11/22/2024 8:37:24 AM    8:59:36 AM     00:22:12   270.6°    45.3°
AO-73       11/22/2024 2:44:30 PM    2:57:06 PM     00:12:36    77.4°    61.5°
ISS         11/22/2024 2:47:33 PM    2:58:45 PM     00:11:12   319.2°    72.9°
IO-117      11/22/2024 3:57:59 PM    5:17:44 PM     01:19:45    82.4°    87.6°
AO-07       11/22/2024 4:25:08 PM    4:47:01 PM     00:21:53    65.9°    40.2°
AO-07       11/22/2024 6:17:40 PM    6:39:41 PM     00:22:01   259.6°    37.2°
RS-44       11/22/2024 9:09:53 PM    9:29:46 PM     00:19:53   280.0°    40.8°
ISS        11/22/2024 10:56:47 PM   11:07:53 PM     00:11:06   349.7°    88.2°
CAS-4A     11/23/2024 12:48:04 AM   12:59:29 AM     00:11:25   142.4°    39.7°
IO-117      11/23/2024 5:43:18 AM    7:02:58 AM     01:19:40   287.5°    87.3°
AO-07       11/23/2024 6:25:17 AM    6:48:12 AM     00:22:55   287.0°    78.5°
RS-44       11/23/2024 7:07:39 AM    7:30:20 AM     00:22:41    81.7°    49.2°
CAS-4A      11/23/2024 7:23:04 AM    7:34:36 AM     00:11:32    27.4°    33.8°
ISS         11/23/2024 1:56:47 PM    2:07:50 PM     00:11:03   130.5°    46.7°
IO-117      11/23/2024 2:16:46 PM    3:36:33 PM     01:19:47    59.8°    52.3°
AO-73       11/23/2024 2:48:00 PM    3:00:40 PM     00:12:40    76.4°    69.4°
AO-07       11/23/2024 5:17:04 PM    5:40:10 PM     00:23:06    85.4°    87.4°
IO-117      11/23/2024 6:14:53 PM    7:25:27 PM     01:10:34   270.7°    38.1°
RS-44       11/23/2024 7:40:19 PM    8:00:08 PM     00:19:49    90.7°    44.9°
CAS-4A      11/24/2024 1:46:02 AM    1:57:23 AM     00:11:21   333.4°    32.1°
IO-117      11/24/2024 4:07:18 AM    5:22:32 AM     01:15:14    94.5°    54.4°
AO-07       11/24/2024 5:25:39 AM    5:47:50 AM     00:22:11   102.3°    42.1°
AO-07       11/24/2024 7:18:32 AM    7:39:55 AM     00:21:23   296.0°    35.5°
RS-44       11/24/2024 7:31:14 AM    7:54:27 AM     00:23:13    84.7°    79.5°
IO-117      11/24/2024 8:03:20 AM    9:21:50 AM     01:18:30   309.9°    38.9°
CAS-4A      11/24/2024 8:20:56 AM    8:32:30 AM     00:11:34   220.0°    38.7°
AO-73       11/24/2024 2:51:28 PM    3:04:11 PM     00:12:43    80.6°    77.9°
AO-07       11/24/2024 4:18:17 PM    4:39:48 PM     00:21:31    64.7°    36.0°
IO-117      11/24/2024 4:34:10 PM    5:52:22 PM     01:18:12   259.9°    73.0°
AO-07       11/24/2024 6:10:23 PM    6:32:41 PM     00:22:18   257.9°    41.9°
RS-44       11/24/2024 8:03:35 PM    8:24:05 PM     00:20:30    94.8°    78.4°
CAS-4A      11/25/2024 1:05:40 AM    1:17:08 AM     00:11:28   330.9°    40.8°
AO-07       11/25/2024 6:18:10 AM    6:41:09 AM     00:22:59   289.3°    86.7°
IO-117      11/25/2024 6:19:11 AM    7:39:19 AM     01:20:08   293.9°    68.7°
CAS-4A      11/25/2024 7:40:36 AM    7:52:18 AM     00:11:42   216.5°    53.9°
RS-44       11/25/2024 7:55:01 AM    8:18:05 AM     00:23:04   268.5°    65.7°
ISS         11/25/2024 1:51:14 PM    2:02:21 PM     00:11:07   317.2°    47.2°
IO-117      11/25/2024 2:53:34 PM    4:13:46 PM     01:20:12    65.8°    68.4°
AO-73       11/25/2024 2:54:54 PM    3:07:38 PM     00:12:44    91.4°    86.7°
AO-07       11/25/2024 5:10:00 PM    5:33:03 PM     00:23:03    72.6°    79.3°
RS-44       11/25/2024 8:27:22 PM    8:47:48 PM     00:20:26   276.8°    61.8°
ISS        11/25/2024 10:00:22 PM   10:11:23 PM     00:11:01   226.5°    58.1°
CAS-4A     11/26/2024 12:25:12 AM   12:36:46 AM     00:11:34   328.6°    54.0°
IO-117      11/26/2024 4:40:38 AM    5:58:44 AM     01:18:06    99.0°    72.7°
AO-07       11/26/2024 5:18:38 AM    5:40:33 AM     00:21:55   100.9°    37.3°
RS-44       11/26/2024 6:25:43 AM    6:47:46 AM     00:22:03    78.7°    34.3°
CAS-4A      11/26/2024 7:00:10 AM    7:11:56 AM     00:11:46   219.6°    75.7°
AO-07       11/26/2024 7:11:20 AM    7:33:03 AM     00:21:43   295.0°    39.7°
RS-44       11/26/2024 8:19:02 AM    8:41:11 AM     00:22:09   270.3°    40.1°
ISS         11/26/2024 1:00:06 PM    1:11:16 PM     00:11:10   134.2°    73.6°
IO-117      11/26/2024 1:11:02 PM    2:29:34 PM     01:18:32    49.1°    38.8°
AO-73       11/26/2024 2:58:16 PM    3:11:02 PM     00:12:46   265.4°    84.3°
IO-117      11/26/2024 5:10:22 PM    6:25:43 PM     01:15:21   265.2°    54.7°
AO-07       11/26/2024 6:03:07 PM    6:25:41 PM     00:22:34   257.7°    47.2°
RS-44       11/26/2024 8:51:41 PM    9:11:16 PM     00:19:35   282.2°    35.3°
ISS         11/26/2024 9:09:14 PM    9:20:18 PM     00:11:04    44.6°    57.9°
CAS-4A     11/26/2024 11:44:39 PM   11:56:16 PM     00:11:37   330.9°    74.0°
IO-117      11/27/2024 3:07:35 AM    4:18:00 AM     01:10:25    89.8°    37.8°
AO-07       11/27/2024 6:11:04 AM    6:34:03 AM     00:22:59   105.8°    84.9°
CAS-4A      11/27/2024 6:19:37 AM    6:31:24 AM     00:11:47    26.7°    79.0°
RS-44       11/27/2024 6:49:08 AM    7:12:17 AM     00:23:09    81.5°    56.4°
IO-117      11/27/2024 6:56:23 AM    8:16:07 AM     01:19:44   300.4°    52.5°
ISS        11/27/2024 12:09:12 PM   12:19:58 PM     00:10:46   129.1°    30.6°
AO-73       11/27/2024 3:01:36 PM    3:14:23 PM     00:12:47   261.3°    75.9°
IO-117      11/27/2024 3:29:55 PM    4:49:41 PM     01:19:46    79.3°    87.0°
AO-07       11/27/2024 5:02:58 PM    5:25:55 PM     00:22:57    68.7°    71.5°
RS-44       11/27/2024 7:21:44 PM    7:41:49 PM     00:20:05    91.3°    52.0°
CAS-4A     11/27/2024 11:04:02 PM   11:15:38 PM     00:11:36   150.2°    80.2°
IO-117      11/28/2024 5:15:16 AM    6:34:53 AM     01:19:37   288.9°    87.9°
CAS-4A      11/28/2024 5:38:58 AM    5:50:40 AM     00:11:42    32.8°    57.6°
AO-07       11/28/2024 7:04:09 AM    7:26:09 AM     00:22:00   293.6°    44.4°
RS-44       11/28/2024 7:12:45 AM    7:36:17 AM     00:23:32    96.2°    88.9°
ISS        11/28/2024 12:54:18 PM    1:05:13 PM     00:10:55   318.7°    32.8°
IO-117      11/28/2024 1:48:40 PM    3:08:26 PM     01:19:46    59.6°    51.8°
AO-73       11/28/2024 3:04:53 PM    3:17:40 PM     00:12:47   260.7°    68.1°
IO-117      11/28/2024 5:46:48 PM    6:57:33 PM     01:10:45   269.9°    38.5°
AO-07       11/28/2024 5:55:53 PM    6:18:38 PM     00:22:45   256.4°    53.1°
RS-44       11/28/2024 7:45:09 PM    8:05:42 PM     00:20:33   136.3°    88.8°
CAS-4A     11/28/2024 10:23:20 PM   10:34:50 PM     00:11:30   140.9°    56.4°
IO-117      11/29/2024 3:39:20 AM    4:54:27 AM     01:15:07    94.1°    53.9°
CAS-4A      11/29/2024 4:58:13 AM    5:09:47 AM     00:11:34    29.2°    42.8°
AO-07       11/29/2024 6:03:58 AM    6:26:56 AM     00:22:58   106.1°    76.7°
IO-117      11/29/2024 7:35:09 AM    8:53:41 AM     01:18:32   310.5°    39.3°
RS-44       11/29/2024 7:36:37 AM    7:59:46 AM     00:23:09   268.7°    58.1°
ISS        11/29/2024 12:02:47 PM   12:13:59 PM     00:11:12   309.3°    74.0°
AO-73       11/29/2024 3:08:07 PM    3:20:54 PM     00:12:47   260.7°    61.1°
IO-117      11/29/2024 4:06:05 PM    5:24:22 PM     01:18:17   260.4°    73.6°
AO-07       11/29/2024 4:55:57 PM    5:18:46 PM     00:22:49    69.2°    64.2°
RS-44       11/29/2024 8:09:04 PM    8:29:22 PM     00:20:18   277.6°    53.5°
ISS         11/29/2024 8:11:50 PM    8:22:57 PM     00:11:07    67.2°    87.1°
CAS-4A      11/29/2024 9:42:34 PM    9:53:54 PM     00:11:20   140.8°    39.4°
CAS-4A      11/30/2024 4:17:20 AM    4:28:43 AM     00:11:23    26.8°    33.1°
IO-117      11/30/2024 5:51:06 AM    7:11:14 AM     01:20:08   293.6°    69.2°
RS-44       11/30/2024 6:07:09 AM    6:29:50 AM     00:22:41    79.6°    39.6°
AO-07       11/30/2024 6:56:58 AM    7:19:14 AM     00:22:16   293.6°    49.6°
RS-44       11/30/2024 8:00:42 AM    8:22:43 AM     00:22:01   272.4°    35.5°
ISS        11/30/2024 11:11:30 AM   11:22:31 AM     00:11:01   129.6°    45.1°
IO-117      11/30/2024 2:25:29 PM    3:45:41 PM     01:20:12    65.6°    67.9°
AO-73       11/30/2024 3:11:19 PM    3:24:04 PM     00:12:45   258.7°    55.0°
AO-07       11/30/2024 5:48:41 PM    6:11:35 PM     00:22:54   255.7°    59.6°
RS-44       11/30/2024 6:40:11 PM    6:59:24 PM     00:19:13    87.3°    34.1°
RS-44       11/30/2024 8:33:30 PM    8:52:47 PM     00:19:17   282.9°    30.7°
CAS-4A     11/30/2024 10:39:34 PM   10:50:50 PM     00:11:16   332.2°    32.3°
IO-117       12/1/2024 4:12:37 AM    5:30:40 AM     01:18:03    98.7°    72.1°
CAS-4A       12/1/2024 5:14:14 AM    5:25:40 AM     00:11:26   218.8°    39.3°
AO-07        12/1/2024 5:56:52 AM    6:19:48 AM     00:22:56   105.8°    68.9°
RS-44        12/1/2024 6:30:38 AM    6:54:12 AM     00:23:34    84.3°    64.3°
IO-117      12/1/2024 12:42:54 PM    2:01:23 PM     01:18:29    48.8°    38.4°
AO-73        12/1/2024 3:14:27 PM    3:27:11 PM     00:12:44   259.4°    49.6°
IO-117       12/1/2024 4:42:16 PM    5:57:46 PM     01:15:30   264.0°    55.2°
AO-07        12/1/2024 4:48:58 PM    5:11:37 PM     00:22:39    68.3°    57.5°
RS-44        12/1/2024 7:03:11 PM    7:23:29 PM     00:20:18    90.6°    60.2°
CAS-4A       12/1/2024 9:58:17 PM   10:09:43 PM     00:11:26   330.6°    42.0°
IO-117       12/2/2024 2:39:41 AM    3:49:55 AM     01:10:14    89.4°    37.3°
CAS-4A       12/2/2024 4:33:00 AM    4:44:35 AM     00:11:35   215.2°    56.3°
IO-117       12/2/2024 6:28:15 AM    7:48:01 AM     01:19:46   300.0°    52.9°
AO-07        12/2/2024 6:49:48 AM    7:12:16 AM     00:22:28   291.3°    55.4°
RS-44        12/2/2024 6:54:20 AM    7:18:03 AM     00:23:43   268.8°    81.8°
ISS         12/2/2024 11:04:51 AM   11:15:57 AM     00:11:06   314.7°    50.1°
IO-117       12/2/2024 3:01:51 PM    4:21:38 PM     01:19:47    77.2°    86.3°
AO-73        12/2/2024 3:17:33 PM    3:30:15 PM     00:12:42   260.9°    44.9°
AO-07        12/2/2024 5:41:31 PM    6:04:30 PM     00:22:59   256.2°    66.7°
ISS          12/2/2024 7:13:47 PM    7:24:50 PM     00:11:03   227.2°    62.8°
RS-44        12/2/2024 7:26:43 PM    7:47:20 PM     00:20:37   276.5°    80.2°
CAS-4A       12/2/2024 9:16:55 PM    9:28:27 PM     00:11:32   327.9°    57.1°
AO-73        12/3/2024 3:03:28 AM    3:16:21 AM     00:12:53    98.7°    37.4°
CAS-4A       12/3/2024 3:51:40 AM    4:03:19 AM     00:11:39   219.4°    80.9°
IO-117       12/3/2024 4:47:13 AM    6:06:49 AM     01:19:36   289.4°    88.5°
AO-07        12/3/2024 5:49:48 AM    6:12:38 AM     00:22:50   103.8°    61.5°
RS-44        12/3/2024 7:18:15 AM    7:41:24 AM     00:23:09   268.7°    51.4°
ISS         12/3/2024 10:13:12 AM   10:24:20 AM     00:11:08   129.0°    67.4°
IO-117       12/3/2024 1:20:33 PM    2:40:18 PM     01:19:45    59.2°    51.3°
AO-73        12/3/2024 3:20:36 PM    3:33:15 PM     00:12:39   262.1°    40.9°
AO-07        12/3/2024 4:42:02 PM    5:04:26 PM     00:22:24    68.4°    51.4°
IO-117       12/3/2024 5:18:43 PM    6:29:38 PM     01:10:55   270.1°    39.0°
ISS          12/3/2024 6:22:07 PM    6:33:11 PM     00:11:04    44.1°    53.1°
XW-2B        1/8/2026 11:41:18 PM  Invalid time  -10:-58:-33     0.0°     0.0°
XW-2B       12/31/1969 6:00:09 PM    6:03:06 PM     00:02:57    78.9°    74.7°
RS-44        12/3/2024 7:50:45 PM    8:10:56 PM     00:20:11   279.8°    46.4°
CAS-4A       12/3/2024 8:35:28 PM    8:47:03 PM     00:11:35   331.2°    80.2°
AO-73        12/4/2024 3:06:26 AM    3:19:23 AM     00:12:57    99.4°    40.9°
CAS-4A       12/4/2024 3:10:14 AM    3:21:52 AM     00:11:38    33.3°    72.2°
IO-117       12/4/2024 3:11:23 AM    4:26:23 AM     01:15:00    95.1°    53.3°
RS-44        12/4/2024 5:48:38 AM    6:11:50 AM     00:23:12    79.3°    45.4°
AO-07        12/4/2024 6:42:38 AM    7:05:18 AM     00:22:40   290.8°    62.0°
IO-117       12/4/2024 7:06:58 AM    8:25:33 AM     01:18:35   310.1°    39.7°
RS-44        12/4/2024 7:42:25 AM    8:04:13 AM     00:21:48   272.7°    31.4°
AO-73        12/4/2024 3:23:36 PM    3:36:12 PM     00:12:36   261.4°    37.4°
IO-117       12/4/2024 3:38:01 PM    4:56:21 PM     01:18:20   260.7°    74.2°
AO-07        12/4/2024 5:34:22 PM    5:57:25 PM     00:23:03   253.7°    74.4°
RS-44        12/4/2024 6:21:31 PM    6:41:09 PM     00:19:38    89.1°    39.6°
CAS-4A       12/4/2024 7:53:57 PM    8:05:31 PM     00:11:34   148.0°    72.1°
CAS-4A       12/5/2024 2:28:41 AM    2:40:13 AM     00:11:32    30.6°    51.5°
AO-73        12/5/2024 3:09:21 AM    3:22:23 AM     00:13:02   100.3°    44.7°
IO-117       12/5/2024 5:23:01 AM    6:43:09 AM     01:20:08   293.3°    69.8°
AO-07        12/5/2024 5:42:44 AM    6:05:26 AM     00:22:42   104.6°    54.8°
RS-44        12/5/2024 6:12:11 AM    6:36:04 AM     00:23:53    86.0°    72.9°
ISS         12/5/2024 10:06:15 AM   10:17:11 AM     00:10:56   318.5°    35.9°
IO-117       12/5/2024 1:57:24 PM    3:17:36 PM     01:20:12    65.3°    67.3°
AO-73        12/5/2024 3:26:34 PM    3:39:06 PM     00:12:32   261.4°    34.3°
AO-07        12/5/2024 4:35:06 PM    4:57:16 PM     00:22:10    66.6°    46.0°
ISS          12/5/2024 6:15:02 PM    6:25:57 PM     00:10:55   231.1°    42.7°
AO-07        12/5/2024 6:28:10 PM    6:49:41 PM     00:21:31   259.7°    32.0°
RS-44        12/5/2024 6:44:39 PM    7:05:11 PM     00:20:32    92.8°    69.6°
CAS-4A       12/5/2024 7:12:21 PM    7:23:49 PM     00:11:28   140.8°    49.2°
CAS-4A       12/6/2024 1:47:01 AM    1:58:24 AM     00:11:23    29.8°    38.0°
AO-73        12/6/2024 3:12:14 AM    3:25:18 AM     00:13:04    99.9°    48.9°
IO-117       12/6/2024 3:44:38 AM    5:02:35 AM     01:17:57   101.3°    71.5°
AO-07        12/6/2024 6:35:29 AM    6:58:18 AM     00:22:49   289.4°    69.1°
RS-44        12/6/2024 6:35:57 AM    6:59:47 AM     00:23:50   268.8°    73.0°
ISS          12/6/2024 9:14:14 AM    9:25:23 AM     00:11:09   318.7°    84.2°
IO-117      12/6/2024 12:14:45 PM    1:33:12 PM     01:18:27    48.5°    38.1°
AO-73        12/6/2024 3:29:28 PM    3:41:56 PM     00:12:28   262.6°    31.5°
IO-117       12/6/2024 4:14:12 PM    5:29:49 PM     01:15:37   264.1°    55.8°
ISS          12/6/2024 5:23:04 PM    5:34:11 PM     00:11:07    49.3°    76.3°
AO-07        12/6/2024 5:27:15 PM    5:50:19 PM     00:23:04   250.9°    82.4°
RS-44        12/6/2024 7:08:18 PM    7:28:58 PM     00:20:40   275.0°    70.2°
IO-117       12/7/2024 2:11:49 AM    3:21:49 AM     01:10:00    88.8°    36.9°
CAS-4A       12/7/2024 2:43:10 AM    2:54:19 AM     00:11:09   220.1°    32.2°
AO-73        12/7/2024 3:15:04 AM    3:28:09 AM     00:13:05    99.4°    53.5°
RS-44        12/7/2024 5:06:47 AM    5:29:10 AM     00:22:23    77.1°    32.0°
AO-07        12/7/2024 5:35:41 AM    5:58:13 AM     00:22:32   103.6°    48.7°
IO-117       12/7/2024 6:00:07 AM    7:19:55 AM     01:19:48   299.6°    53.4°
RS-44        12/7/2024 6:59:56 AM    7:23:00 AM     00:23:04   270.1°    45.5°
AO-07        12/7/2024 7:28:49 AM    7:49:46 AM     00:20:57   297.5°    31.0°
ISS          12/7/2024 8:22:28 AM    8:33:21 AM     00:10:53   130.6°    38.7°
IO-117       12/7/2024 2:33:46 PM    3:53:36 PM     01:19:50    74.9°    85.7°
AO-07        12/7/2024 4:28:11 PM    4:50:05 PM     00:21:54    64.9°    41.2°
AO-07        12/7/2024 6:20:49 PM    6:42:43 PM     00:21:54   259.6°    36.1°
CAS-4A       12/7/2024 7:26:36 PM    7:37:57 PM     00:11:21   330.8°    36.6°
RS-44        12/7/2024 7:32:27 PM    7:52:32 PM     00:20:05   281.7°    40.4°
CAS-4A       12/8/2024 2:01:06 AM    2:12:30 AM     00:11:24   217.6°    46.6°
AO-73        12/8/2024 3:17:51 AM    3:30:57 AM     00:13:06    99.0°    58.5°
IO-117       12/8/2024 4:19:11 AM    5:38:44 AM     01:19:33   294.2°    89.1°
RS-44        12/8/2024 5:30:09 AM    5:53:48 AM     00:23:39    80.7°    51.9°
AO-07        12/8/2024 6:28:21 AM    6:51:16 AM     00:22:55   285.8°    76.8°
IO-117      12/8/2024 12:52:28 PM    2:12:09 PM     01:19:41    59.1°    50.9°
IO-117       12/8/2024 4:50:37 PM    6:01:45 PM     01:11:08   270.3°    39.5°
AO-07        12/8/2024 5:20:09 PM    5:43:13 PM     00:23:04    96.2°    89.2°
RS-44        12/8/2024 6:02:50 PM    6:22:55 PM     00:20:05    90.0°    46.1°
CAS-4A       12/8/2024 6:44:24 PM    6:55:54 PM     00:11:30   329.1°    49.5°
CAS-4A       12/9/2024 1:18:57 AM    1:30:29 AM     00:11:32   218.1°    69.1°
IO-117       12/9/2024 2:43:25 AM    3:58:18 AM     01:14:53    94.8°    52.7°
AO-73        12/9/2024 3:20:34 AM    3:33:42 AM     00:13:08   101.6°    63.9°
AO-07        12/9/2024 5:28:40 AM    5:50:57 AM     00:22:17   101.8°    43.3°
RS-44        12/9/2024 5:53:46 AM    6:17:53 AM     00:24:07    81.0°    81.8°
IO-117       12/9/2024 6:38:47 AM    7:57:25 AM     01:18:38   309.6°    40.1°
AO-07        12/9/2024 7:21:37 AM    7:42:55 AM     00:21:18   295.5°    34.7°
ISS          12/9/2024 8:14:36 AM    8:25:42 AM     00:11:06   313.4°    59.9°
IO-117       12/9/2024 3:09:57 PM    4:28:21 PM     01:18:24   257.2°    74.9°
AO-07        12/9/2024 4:21:19 PM    4:42:52 PM     00:21:33    63.9°    36.8°
ISS          12/9/2024 4:23:20 PM    4:34:26 PM     00:11:06   232.6°    76.6°
CAS-4A       12/9/2024 6:02:08 PM    6:13:44 PM     00:11:36   328.3°    70.2°
AO-07        12/9/2024 6:13:31 PM    6:35:42 PM     00:22:11   259.0°    40.7°
RS-44        12/9/2024 6:26:08 PM    6:46:53 PM     00:20:45    97.3°    79.8°
CAS-4A     12/10/2024 12:36:43 AM   12:48:16 AM     00:11:33    27.6°    81.9°
AO-73       12/10/2024 3:23:15 AM    3:36:22 AM     00:13:07   102.1°    69.6°
IO-117      12/10/2024 4:54:57 AM    6:15:04 AM     01:20:07   293.1°    70.4°
RS-44       12/10/2024 6:17:36 AM    6:41:28 AM     00:23:52   268.5°    64.9°
AO-07       12/10/2024 6:21:13 AM    6:44:12 AM     00:22:59   287.9°    84.9°
